{
  "type": "FeatureCollection",
  "generator": "overpass-turbo",
  "copyright": "The data included in this document is from www.openstreetmap.org. The data is made available under ODbL.",
  "timestamp": "2015-02-13T12:15:02Z",
  "features": [
    {
      "type": "Feature",
      "id": "node/247991562",
      "properties": {
        "@id": "node/247991562",
        "highway": "bus_stop",
        "name": "Anepalya"
      },
      "geometry": {
        "type": "Point",
        "coordinates": [
          77.6045397,
          12.9523885
        ]
      }
    },
    {
      "type": "Feature",
      "id": "node/248838952",
      "properties": {
        "@id": "node/248838952",
        "highway": "bus_stop",
        "name": "Kohinoor Ground,GAVIPURAM EXTENTION"
      },
      "geometry": {
        "type": "Point",
        "coordinates": [
          77.5665831,
          12.9473077
        ]
      }
    },
    {
      "type": "Feature",
      "id": "node/249082241",
      "properties": {
        "@id": "node/249082241",
        "highway": "bus_stop",
        "name": "Naga Talkies"
      },
      "geometry": {
        "type": "Point",
        "coordinates": [
          77.6117636,
          12.9843701
        ]
      }
    },
    {
      "type": "Feature",
      "id": "node/249082830",
      "properties": {
        "@id": "node/249082830",
        "highway": "bus_stop",
        "name": "Cantonment Railway Station"
      },
      "geometry": {
        "type": "Point",
        "coordinates": [
          77.5975331,
          12.9935676
        ]
      }
    },
    {
      "type": "Feature",
      "id": "node/249084526",
      "properties": {
        "@id": "node/249084526",
        "highway": "bus_stop",
        "name": "Magadi Road 1st Cross"
      },
      "geometry": {
        "type": "Point",
        "coordinates": [
          77.5635919,
          12.9758466
        ]
      }
    },
    {
      "type": "Feature",
      "id": "node/249087970",
      "properties": {
        "@id": "node/249087970",
        "highway": "bus_stop",
        "name": "Cauvery Bhavana"
      },
      "geometry": {
        "type": "Point",
        "coordinates": [
          77.5817812,
          12.9727182
        ]
      }
    },
    {
      "type": "Feature",
      "id": "node/249141343",
      "properties": {
        "@id": "node/249141343",
        "highway": "bus_stop",
        "name": "Sajjan Rao Circle",
        "name:kn": "ಸಜ್ಜನ ರಾವ ವೃತ್ತ"
      },
      "geometry": {
        "type": "Point",
        "coordinates": [
          77.576788,
          12.9531227
        ]
      }
    },
    {
      "type": "Feature",
      "id": "node/249776275",
      "properties": {
        "@id": "node/249776275",
        "designation": "T. R. Nagar",
        "highway": "bus_stop",
        "local_ref": "T. R. Nagar",
        "name": "Thyagaraja Nagar"
      },
      "geometry": {
        "type": "Point",
        "coordinates": [
          77.5675801,
          12.9320356
        ]
      }
    },
    {
      "type": "Feature",
      "id": "node/251099554",
      "properties": {
        "@id": "node/251099554",
        "highway": "bus_stop",
        "local_ref": "Konena Agrahara",
        "name": "Rajeshwari Talkies"
      },
      "geometry": {
        "type": "Point",
        "coordinates": [
          77.6604604,
          12.9592815
        ]
      }
    },
    {
      "type": "Feature",
      "id": "node/251099560",
      "properties": {
        "@id": "node/251099560",
        "highway": "bus_stop",
        "local_ref": "HAL",
        "name": "Helicopter Division"
      },
      "geometry": {
        "type": "Point",
        "coordinates": [
          77.675471,
          12.956675
        ]
      }
    },
    {
      "type": "Feature",
      "id": "node/253518983",
      "properties": {
        "@id": "node/253518983",
        "highway": "bus_stop",
        "name": "HAL Market"
      },
      "geometry": {
        "type": "Point",
        "coordinates": [
          77.6658898,
          12.9607806
        ]
      }
    },
    {
      "type": "Feature",
      "id": "node/253890237",
      "properties": {
        "@id": "node/253890237",
        "highway": "bus_stop",
        "name": "Trinity Circle"
      },
      "geometry": {
        "type": "Point",
        "coordinates": [
          77.6195317,
          12.9711
        ]
      }
    },
    {
      "type": "Feature",
      "id": "node/253890241",
      "properties": {
        "@id": "node/253890241",
        "highway": "bus_stop",
        "name": "Account Office HAL Road"
      },
      "geometry": {
        "type": "Point",
        "coordinates": [
          77.6201586,
          12.9675171
        ]
      }
    },
    {
      "type": "Feature",
      "id": "node/254665627",
      "properties": {
        "@id": "node/254665627",
        "highway": "bus_stop",
        "name": "Telephone Exchange,VASANTHA NAGARA,"
      },
      "geometry": {
        "type": "Point",
        "coordinates": [
          77.5886164,
          12.9826782
        ]
      }
    },
    {
      "type": "Feature",
      "id": "node/254923713",
      "properties": {
        "@id": "node/254923713",
        "highway": "bus_stop",
        "local_ref": "KORAMANGALA RING ROAD",
        "name": "Canara Bank"
      },
      "geometry": {
        "type": "Point",
        "coordinates": [
          77.6239316,
          12.9345998
        ]
      }
    },
    {
      "type": "Feature",
      "id": "node/255558064",
      "properties": {
        "@id": "node/255558064",
        "highway": "bus_stop",
        "local_ref": "THIPPASANDRA",
        "name": "Tippasandra Market"
      },
      "geometry": {
        "type": "Point",
        "coordinates": [
          77.6508288,
          12.9724915
        ]
      }
    },
    {
      "type": "Feature",
      "id": "node/286257700",
      "properties": {
        "@id": "node/286257700",
        "highway": "bus_stop",
        "local_ref": "GUTTAHALLI PALACE",
        "name": "RM Guttahalli"
      },
      "geometry": {
        "type": "Point",
        "coordinates": [
          77.5840062,
          12.9997788
        ]
      }
    },
    {
      "type": "Feature",
      "id": "node/287905435",
      "properties": {
        "@id": "node/287905435",
        "highway": "bus_stop",
        "local_ref": "HALASURU",
        "name": "Hasanath College"
      },
      "geometry": {
        "type": "Point",
        "coordinates": [
          77.6153083,
          12.9790423
        ]
      }
    },
    {
      "type": "Feature",
      "id": "node/294079842",
      "properties": {
        "@id": "node/294079842",
        "highway": "bus_stop",
        "local_ref": "SHIVAJI NAGARA",
        "name": "Bamboo Bazaar"
      },
      "geometry": {
        "type": "Point",
        "coordinates": [
          77.6043157,
          12.9921747
        ]
      }
    },
    {
      "type": "Feature",
      "id": "node/296029985",
      "properties": {
        "@id": "node/296029985",
        "highway": "bus_stop",
        "name": "Lingarajapuram"
      },
      "geometry": {
        "type": "Point",
        "coordinates": [
          77.6257294,
          13.0123429
        ]
      }
    },
    {
      "type": "Feature",
      "id": "node/296030032",
      "properties": {
        "@id": "node/296030032",
        "highway": "bus_stop",
        "local_ref": "Pottery Road",
        "name": "Clarence School"
      },
      "geometry": {
        "type": "Point",
        "coordinates": [
          77.6166702,
          13.0022194
        ]
      }
    },
    {
      "type": "Feature",
      "id": "node/296030070",
      "properties": {
        "@id": "node/296030070",
        "highway": "bus_stop",
        "name": "Hosmat Hospital"
      },
      "geometry": {
        "type": "Point",
        "coordinates": [
          77.6125357,
          12.9691651
        ]
      }
    },
    {
      "type": "Feature",
      "id": "node/298830881",
      "properties": {
        "@id": "node/298830881",
        "highway": "bus_stop",
        "name": "Military Account Office"
      },
      "geometry": {
        "type": "Point",
        "coordinates": [
          77.6195213,
          12.9654482
        ]
      }
    },
    {
      "type": "Feature",
      "id": "node/298831024",
      "properties": {
        "@id": "node/298831024",
        "highway": "bus_stop",
        "local_ref": "HAL",
        "name": "Helicopter Division"
      },
      "geometry": {
        "type": "Point",
        "coordinates": [
          77.6754435,
          12.9565966
        ]
      }
    },
    {
      "type": "Feature",
      "id": "node/308231946",
      "properties": {
        "@id": "node/308231946",
        "highway": "bus_stop",
        "local_ref": "DIVANRA PALYA",
        "name": "Divanara palya"
      },
      "geometry": {
        "type": "Point",
        "coordinates": [
          77.5619225,
          13.0259818
        ]
      }
    },
    {
      "type": "Feature",
      "id": "node/308232353",
      "properties": {
        "@id": "node/308232353",
        "highway": "bus_stop",
        "local_ref": "RAJAJINAGARA 1ST BLOCK",
        "name": "ISKCON TEMPLE"
      },
      "geometry": {
        "type": "Point",
        "coordinates": [
          77.5510191,
          13.0113965
        ]
      }
    },
    {
      "type": "Feature",
      "id": "node/308232879",
      "properties": {
        "@id": "node/308232879",
        "highway": "bus_stop",
        "local_ref": "Rajaji Nagar 1st Block",
        "name": "Mahalakshmi Layout Entarence"
      },
      "geometry": {
        "type": "Point",
        "coordinates": [
          77.5485632,
          13.0074112
        ]
      }
    },
    {
      "type": "Feature",
      "id": "node/308238279",
      "properties": {
        "@id": "node/308238279",
        "highway": "bus_stop",
        "local_ref": "BILAL NAGARA",
        "name": "Periyar Nagara Circle"
      },
      "geometry": {
        "type": "Point",
        "coordinates": [
          77.613534,
          13.0087757
        ]
      }
    },
    {
      "type": "Feature",
      "id": "node/308238281",
      "properties": {
        "@id": "node/308238281",
        "highway": "bus_stop",
        "local_ref": "Kadugondanahalli",
        "name": "Muslim Colony"
      },
      "geometry": {
        "type": "Point",
        "coordinates": [
          77.6160475,
          13.0119142
        ]
      }
    },
    {
      "type": "Feature",
      "id": "node/308238284",
      "properties": {
        "@id": "node/308238284",
        "highway": "bus_stop",
        "name": "Venkateshapura"
      },
      "geometry": {
        "type": "Point",
        "coordinates": [
          77.6176968,
          13.0158279
        ]
      }
    },
    {
      "type": "Feature",
      "id": "node/308238295",
      "properties": {
        "@id": "node/308238295",
        "highway": "bus_stop",
        "local_ref": "ARABIC COLLEGE",
        "name": "Arabic college"
      },
      "geometry": {
        "type": "Point",
        "coordinates": [
          77.6208724,
          13.0300127
        ]
      }
    },
    {
      "type": "Feature",
      "id": "node/308809874",
      "properties": {
        "@id": "node/308809874",
        "highway": "bus_stop",
        "name": "Jayanagara 3rd Block"
      },
      "geometry": {
        "type": "Point",
        "coordinates": [
          77.5839239,
          12.9336627
        ]
      }
    },
    {
      "type": "Feature",
      "id": "node/308922692",
      "properties": {
        "@id": "node/308922692",
        "highway": "bus_stop",
        "name": "Nimhans Hospital"
      },
      "geometry": {
        "type": "Point",
        "coordinates": [
          77.5976995,
          12.93982
        ]
      }
    },
    {
      "type": "Feature",
      "id": "node/308923503",
      "properties": {
        "@id": "node/308923503",
        "highway": "bus_stop",
        "name": "MICO Gate"
      },
      "geometry": {
        "type": "Point",
        "coordinates": [
          77.6030099,
          12.9444554
        ]
      }
    },
    {
      "type": "Feature",
      "id": "node/308924467",
      "properties": {
        "@id": "node/308924467",
        "highway": "bus_stop",
        "local_ref": "ADUGODI",
        "name": "Gajendra Nagara"
      },
      "geometry": {
        "type": "Point",
        "coordinates": [
          77.6077319,
          12.9515129
        ]
      }
    },
    {
      "type": "Feature",
      "id": "node/316660381",
      "properties": {
        "@id": "node/316660381",
        "highway": "bus_stop",
        "name": "Link Road"
      },
      "geometry": {
        "type": "Point",
        "coordinates": [
          77.5739623,
          12.9938189
        ]
      }
    },
    {
      "type": "Feature",
      "id": "node/316997347",
      "properties": {
        "@id": "node/316997347",
        "highway": "bus_stop",
        "name": "Kodihalli",
        "name:kn": "ಕೊಡಿಹಳ್ಳಿ"
      },
      "geometry": {
        "type": "Point",
        "coordinates": [
          77.6469543,
          12.9599816
        ]
      }
    },
    {
      "type": "Feature",
      "id": "node/325156622",
      "properties": {
        "@id": "node/325156622",
        "highway": "bus_stop",
        "name": "Domlur Herohonda Stop",
        "name:kn": "ಡೊಮಲೂರು ಹಿರೊಹೊಂಡ"
      },
      "geometry": {
        "type": "Point",
        "coordinates": [
          77.6412885,
          12.955068
        ]
      }
    },
    {
      "type": "Feature",
      "id": "node/333512357",
      "properties": {
        "@id": "node/333512357",
        "highway": "bus_stop",
        "local_ref": "MARUTHI SEVA NAGARA",
        "name": "Sathyanagara"
      },
      "geometry": {
        "type": "Point",
        "coordinates": [
          77.6399912,
          13.0001857
        ]
      }
    },
    {
      "type": "Feature",
      "id": "node/333512485",
      "properties": {
        "@id": "node/333512485",
        "highway": "bus_stop",
        "local_ref": "MARUTHI SEVA NAGARA",
        "name": "Old Bayappanahalli"
      },
      "geometry": {
        "type": "Point",
        "coordinates": [
          77.6440047,
          12.9946381
        ]
      }
    },
    {
      "type": "Feature",
      "id": "node/335648274",
      "properties": {
        "@id": "node/335648274",
        "highway": "bus_stop",
        "local_ref": "BANASAWADI",
        "name": "HORAMAVU PETROL BUNK"
      },
      "geometry": {
        "type": "Point",
        "coordinates": [
          77.6537448,
          13.019677
        ]
      }
    },
    {
      "type": "Feature",
      "id": "node/340406557",
      "properties": {
        "@id": "node/340406557",
        "highway": "bus_stop",
        "local_ref": "SADANANDA NAGARA",
        "name": "NGEF Ground"
      },
      "geometry": {
        "type": "Point",
        "coordinates": [
          77.6516531,
          12.9919736
        ]
      }
    },
    {
      "type": "Feature",
      "id": "node/343304434",
      "properties": {
        "@id": "node/343304434",
        "highway": "bus_stop",
        "local_ref": "SUBBAIAHAN PALYA",
        "name": "Indian Oil"
      },
      "geometry": {
        "type": "Point",
        "coordinates": [
          77.6384931,
          13.0057613
        ]
      }
    },
    {
      "type": "Feature",
      "id": "node/343304441",
      "properties": {
        "@id": "node/343304441",
        "highway": "bus_stop",
        "local_ref": "SUBBAIAHAN PALYA KALYANA NAGARA",
        "name": "Maruthi School"
      },
      "geometry": {
        "type": "Point",
        "coordinates": [
          77.6443133,
          13.0099317
        ]
      }
    },
    {
      "type": "Feature",
      "id": "node/343324577",
      "properties": {
        "@id": "node/343324577",
        "highway": "bus_stop",
        "name": "LRDE"
      },
      "geometry": {
        "type": "Point",
        "coordinates": [
          77.6563443,
          12.9806958
        ]
      }
    },
    {
      "type": "Feature",
      "id": "node/343336128",
      "properties": {
        "@id": "node/343336128",
        "highway": "bus_stop",
        "local_ref": "BANASAWADI",
        "name": "HORAMAVU PETROL BUNK"
      },
      "geometry": {
        "type": "Point",
        "coordinates": [
          77.6538697,
          13.0198055
        ]
      }
    },
    {
      "type": "Feature",
      "id": "node/343338288",
      "properties": {
        "@id": "node/343338288",
        "highway": "bus_stop",
        "local_ref": "KALKERE",
        "name": "Sun Shine School"
      },
      "geometry": {
        "type": "Point",
        "coordinates": [
          77.6683846,
          13.0309356
        ]
      }
    },
    {
      "type": "Feature",
      "id": "node/343338936",
      "properties": {
        "@id": "node/343338936",
        "highway": "bus_stop",
        "local_ref": "SADASHIVA NAGARA",
        "name": "Palace Ground"
      },
      "geometry": {
        "type": "Point",
        "coordinates": [
          77.5839066,
          13.0102005
        ]
      }
    },
    {
      "type": "Feature",
      "id": "node/353187806",
      "properties": {
        "@id": "node/353187806",
        "highway": "bus_stop",
        "local_ref": "KACHARAKANAHALLI",
        "name": "Chandrika Soap Factory"
      },
      "geometry": {
        "type": "Point",
        "coordinates": [
          77.6274758,
          13.015012
        ]
      }
    },
    {
      "type": "Feature",
      "id": "node/374216503",
      "properties": {
        "@id": "node/374216503",
        "highway": "bus_stop",
        "local_ref": "DEVASANDRA",
        "name": "MS Ramaiah Hospital New BEL Road"
      },
      "geometry": {
        "type": "Point",
        "coordinates": [
          77.5720821,
          13.0235339
        ]
      }
    },
    {
      "type": "Feature",
      "id": "node/374218191",
      "properties": {
        "@id": "node/374218191",
        "highway": "bus_stop",
        "name": "M.S. Ramaiah College"
      },
      "geometry": {
        "type": "Point",
        "coordinates": [
          77.5715049,
          13.0273904
        ]
      }
    },
    {
      "type": "Feature",
      "id": "node/412135151",
      "properties": {
        "@id": "node/412135151",
        "highway": "bus_stop",
        "local_ref": "BENSON TOWN",
        "name": "Canara Bank"
      },
      "geometry": {
        "type": "Point",
        "coordinates": [
          77.6004641,
          12.995675
        ]
      }
    },
    {
      "type": "Feature",
      "id": "node/414033325",
      "properties": {
        "@id": "node/414033325",
        "highway": "bus_stop",
        "local_ref": "C.V.RAMAN NAGARA",
        "name": "DRDO Qts"
      },
      "geometry": {
        "type": "Point",
        "coordinates": [
          77.6610366,
          12.984173
        ]
      }
    },
    {
      "type": "Feature",
      "id": "node/414404832",
      "properties": {
        "@id": "node/414404832",
        "highway": "bus_stop",
        "name": "Konena Agrahara"
      },
      "geometry": {
        "type": "Point",
        "coordinates": [
          77.6594288,
          12.9589497
        ]
      }
    },
    {
      "type": "Feature",
      "id": "node/426403822",
      "properties": {
        "@id": "node/426403822",
        "highway": "bus_stop",
        "local_ref": "Yeshwanathapura",
        "name": "RMC"
      },
      "geometry": {
        "type": "Point",
        "coordinates": [
          77.547467,
          13.0244484
        ]
      }
    },
    {
      "type": "Feature",
      "id": "node/428836836",
      "properties": {
        "@id": "node/428836836",
        "highway": "bus_stop",
        "name": "Boldwin Girls High School"
      },
      "geometry": {
        "type": "Point",
        "coordinates": [
          77.6028276,
          12.965641
        ]
      }
    },
    {
      "type": "Feature",
      "id": "node/428843485",
      "properties": {
        "@id": "node/428843485",
        "highway": "bus_stop",
        "name": "Vasanth Nagar"
      },
      "geometry": {
        "type": "Point",
        "coordinates": [
          77.595052,
          12.9927836
        ]
      }
    },
    {
      "type": "Feature",
      "id": "node/429001259",
      "properties": {
        "@id": "node/429001259",
        "highway": "bus_stop",
        "local_ref": "State Bank Of India",
        "name": "Bowring Institute"
      },
      "geometry": {
        "type": "Point",
        "coordinates": [
          77.6014141,
          12.9742171
        ]
      }
    },
    {
      "type": "Feature",
      "id": "node/429286836",
      "properties": {
        "@id": "node/429286836",
        "highway": "bus_stop",
        "local_ref": "RAJAJINAGARA",
        "name": "Gopalapura"
      },
      "geometry": {
        "type": "Point",
        "coordinates": [
          77.5576857,
          12.9805909
        ]
      }
    },
    {
      "type": "Feature",
      "id": "node/429303160",
      "properties": {
        "@id": "node/429303160",
        "highway": "bus_stop",
        "local_ref": "Mahathma Gandhi Statue",
        "name": "Chinnaswamy Stadium"
      },
      "geometry": {
        "type": "Point",
        "coordinates": [
          77.5989571,
          12.9774956
        ]
      }
    },
    {
      "type": "Feature",
      "id": "node/429415725",
      "properties": {
        "@id": "node/429415725",
        "highway": "bus_stop",
        "local_ref": "HALASURU",
        "name": "Ajantha Talkies"
      },
      "geometry": {
        "type": "Point",
        "coordinates": [
          77.6143096,
          12.9825611
        ]
      }
    },
    {
      "type": "Feature",
      "id": "node/430043685",
      "properties": {
        "@id": "node/430043685",
        "highway": "bus_stop",
        "local_ref": "RT NAGARA",
        "name": "Matada Halli"
      },
      "geometry": {
        "type": "Point",
        "coordinates": [
          77.5927509,
          13.0148503
        ]
      }
    },
    {
      "type": "Feature",
      "id": "node/430043750",
      "properties": {
        "@id": "node/430043750",
        "highway": "bus_stop",
        "local_ref": "RT NAGARA",
        "name": "Dinnur"
      },
      "geometry": {
        "type": "Point",
        "coordinates": [
          77.59861,
          13.0241239
        ]
      }
    },
    {
      "type": "Feature",
      "id": "node/430043822",
      "properties": {
        "@id": "node/430043822",
        "highway": "bus_stop",
        "local_ref": "KAVALABYRASANDRA",
        "name": "P&T Quarters"
      },
      "geometry": {
        "type": "Point",
        "coordinates": [
          77.6053753,
          13.0213845
        ]
      }
    },
    {
      "type": "Feature",
      "id": "node/431610823",
      "properties": {
        "@id": "node/431610823",
        "highway": "bus_stop",
        "name": "Kathalipalya"
      },
      "geometry": {
        "type": "Point",
        "coordinates": [
          77.637958,
          12.9925578
        ]
      }
    },
    {
      "type": "Feature",
      "id": "node/442107175",
      "properties": {
        "@id": "node/442107175",
        "highway": "bus_stop",
        "name": "Mini TajMahal"
      },
      "geometry": {
        "type": "Point",
        "coordinates": [
          77.6675022,
          13.0014299
        ]
      }
    },
    {
      "type": "Feature",
      "id": "node/442438284",
      "properties": {
        "@id": "node/442438284",
        "highway": "bus_stop",
        "local_ref": "RAMAMURTHI NAGARA",
        "name": "Koshys Hospitals"
      },
      "geometry": {
        "type": "Point",
        "coordinates": [
          77.6758811,
          13.0205525
        ]
      }
    },
    {
      "type": "Feature",
      "id": "node/442438292",
      "properties": {
        "@id": "node/442438292",
        "highway": "bus_stop",
        "local_ref": "RAMAMURTHI NAGARA",
        "name": "Muneshwara Layout"
      },
      "geometry": {
        "type": "Point",
        "coordinates": [
          77.6718331,
          13.0182036
        ]
      }
    },
    {
      "type": "Feature",
      "id": "node/443219990",
      "properties": {
        "@id": "node/443219990",
        "highway": "bus_stop",
        "local_ref": "H.B.R.LAYOUT 1ST STAGE",
        "name": "HBR Layout Ist Stage"
      },
      "geometry": {
        "type": "Point",
        "coordinates": [
          77.6249677,
          13.0211755
        ]
      }
    },
    {
      "type": "Feature",
      "id": "node/443241270",
      "properties": {
        "@id": "node/443241270",
        "highway": "bus_stop",
        "local_ref": "CHIKKA BANASAWADI",
        "name": "Chikka Banasawadi"
      },
      "geometry": {
        "type": "Point",
        "coordinates": [
          77.6454943,
          13.0064291
        ]
      }
    },
    {
      "type": "Feature",
      "id": "node/443252750",
      "properties": {
        "@id": "node/443252750",
        "highway": "bus_stop",
        "local_ref": "VIVEKA NAGARA",
        "name": "Ravi Tent"
      },
      "geometry": {
        "type": "Point",
        "coordinates": [
          77.6233245,
          12.9508254
        ]
      }
    },
    {
      "type": "Feature",
      "id": "node/443252765",
      "properties": {
        "@id": "node/443252765",
        "highway": "bus_stop",
        "name": "Bakery Ejipura"
      },
      "geometry": {
        "type": "Point",
        "coordinates": [
          77.6265306,
          12.9497694
        ]
      }
    },
    {
      "type": "Feature",
      "id": "node/443724378",
      "properties": {
        "@id": "node/443724378",
        "highway": "bus_stop",
        "name": "Regulated  Market"
      },
      "geometry": {
        "type": "Point",
        "coordinates": [
          77.5504128,
          13.022804
        ]
      }
    },
    {
      "type": "Feature",
      "id": "node/443807283",
      "properties": {
        "@id": "node/443807283",
        "highway": "bus_stop",
        "local_ref": "Sadananda Nagara",
        "name": "Krishnaiahnapalya"
      },
      "geometry": {
        "type": "Point",
        "coordinates": [
          77.6521047,
          12.9953768
        ]
      }
    },
    {
      "type": "Feature",
      "id": "node/446781803",
      "properties": {
        "@id": "node/446781803",
        "highway": "bus_stop",
        "local_ref": "RAJAJINAGARA 1ST BLOCK",
        "name": "ISKCON TEMPLE"
      },
      "geometry": {
        "type": "Point",
        "coordinates": [
          77.5509794,
          13.0115544
        ]
      }
    },
    {
      "type": "Feature",
      "id": "node/446791191",
      "properties": {
        "@id": "node/446791191",
        "highway": "bus_stop",
        "name": "EHP"
      },
      "geometry": {
        "type": "Point",
        "coordinates": [
          77.5507451,
          12.9907081
        ]
      }
    },
    {
      "type": "Feature",
      "id": "node/446791192",
      "properties": {
        "@id": "node/446791192",
        "highway": "bus_stop",
        "name": "EHP"
      },
      "geometry": {
        "type": "Point",
        "coordinates": [
          77.5509238,
          12.9906566
        ]
      }
    },
    {
      "type": "Feature",
      "id": "node/446791193",
      "properties": {
        "@id": "node/446791193",
        "highway": "bus_stop",
        "name": "Manjunatha Nagar"
      },
      "geometry": {
        "type": "Point",
        "coordinates": [
          77.5507591,
          12.9949494
        ]
      }
    },
    {
      "type": "Feature",
      "id": "node/446791198",
      "properties": {
        "@id": "node/446791198",
        "highway": "bus_stop"
      },
      "geometry": {
        "type": "Point",
        "coordinates": [
          77.549699,
          12.999298
        ]
      }
    },
    {
      "type": "Feature",
      "id": "node/446791202",
      "properties": {
        "@id": "node/446791202",
        "highway": "bus_stop",
        "local_ref": "RAJAJINAGARA",
        "name": "Canara Bank"
      },
      "geometry": {
        "type": "Point",
        "coordinates": [
          77.5503338,
          13.00127
        ]
      }
    },
    {
      "type": "Feature",
      "id": "node/446805857",
      "properties": {
        "@id": "node/446805857",
        "highway": "bus_stop",
        "name": "Mohan Kumar Nagar"
      },
      "geometry": {
        "type": "Point",
        "coordinates": [
          77.5495064,
          13.0307453
        ]
      }
    },
    {
      "type": "Feature",
      "id": "node/446805872",
      "properties": {
        "@id": "node/446805872",
        "highway": "bus_stop",
        "name": "Post Office"
      },
      "geometry": {
        "type": "Point",
        "coordinates": [
          77.5596914,
          13.0309651
        ]
      }
    },
    {
      "type": "Feature",
      "id": "node/446822786",
      "properties": {
        "@id": "node/446822786",
        "highway": "bus_stop",
        "local_ref": "MALLESHWARAM",
        "name": "Mysore Lamps"
      },
      "geometry": {
        "type": "Point",
        "coordinates": [
          77.5611091,
          13.0122835
        ]
      }
    },
    {
      "type": "Feature",
      "id": "node/446822787",
      "properties": {
        "@id": "node/446822787",
        "highway": "bus_stop",
        "local_ref": "YESHAWANTHAPURA",
        "name": "Kirloskar"
      },
      "geometry": {
        "type": "Point",
        "coordinates": [
          77.5571835,
          13.0139792
        ]
      }
    },
    {
      "type": "Feature",
      "id": "node/446865400",
      "properties": {
        "@id": "node/446865400",
        "highway": "bus_stop",
        "local_ref": "Bellary Road",
        "name": "Veterinary College"
      },
      "geometry": {
        "type": "Point",
        "coordinates": [
          77.587218,
          13.030951
        ]
      }
    },
    {
      "type": "Feature",
      "id": "node/446865401",
      "properties": {
        "@id": "node/446865401",
        "highway": "bus_stop",
        "name": "Ananda Nagar"
      },
      "geometry": {
        "type": "Point",
        "coordinates": [
          77.5925517,
          13.0295976
        ]
      }
    },
    {
      "type": "Feature",
      "id": "node/446865402",
      "properties": {
        "@id": "node/446865402",
        "highway": "bus_stop",
        "local_ref": "GANGANAGARA",
        "name": "CBI office"
      },
      "geometry": {
        "type": "Point",
        "coordinates": [
          77.5863721,
          13.0268438
        ]
      }
    },
    {
      "type": "Feature",
      "id": "node/446865403",
      "properties": {
        "@id": "node/446865403",
        "highway": "bus_stop",
        "local_ref": "GANGANAGARA,",
        "name": "Vasanthappa Block"
      },
      "geometry": {
        "type": "Point",
        "coordinates": [
          77.5889731,
          13.0262674
        ]
      }
    },
    {
      "type": "Feature",
      "id": "node/446865404",
      "properties": {
        "@id": "node/446865404",
        "highway": "bus_stop",
        "name": "Ganga Nagar"
      },
      "geometry": {
        "type": "Point",
        "coordinates": [
          77.5886129,
          13.0206843
        ]
      }
    },
    {
      "type": "Feature",
      "id": "node/446865405",
      "properties": {
        "@id": "node/446865405",
        "highway": "bus_stop",
        "name": "Muneshwara Temple"
      },
      "geometry": {
        "type": "Point",
        "coordinates": [
          77.5879527,
          13.0169685
        ]
      }
    },
    {
      "type": "Feature",
      "id": "node/446941376",
      "properties": {
        "@id": "node/446941376",
        "highway": "bus_stop",
        "name": "Mekhri Circle"
      },
      "geometry": {
        "type": "Point",
        "coordinates": [
          77.5836905,
          13.0135799
        ]
      }
    },
    {
      "type": "Feature",
      "id": "node/446941377",
      "properties": {
        "@id": "node/446941377",
        "highway": "bus_stop",
        "name": "Sadhashivnagar"
      },
      "geometry": {
        "type": "Point",
        "coordinates": [
          77.5800648,
          13.0084825
        ]
      }
    },
    {
      "type": "Feature",
      "id": "node/446941379",
      "properties": {
        "@id": "node/446941379",
        "highway": "bus_stop",
        "local_ref": "JC NAGARA",
        "name": "TV Tower"
      },
      "geometry": {
        "type": "Point",
        "coordinates": [
          77.5911702,
          13.0090429
        ]
      }
    },
    {
      "type": "Feature",
      "id": "node/446941380",
      "properties": {
        "@id": "node/446941380",
        "highway": "bus_stop",
        "local_ref": "Sadashivanagar",
        "name": "Bashayam Circle"
      },
      "geometry": {
        "type": "Point",
        "coordinates": [
          77.5790415,
          13.0062132
        ]
      }
    },
    {
      "type": "Feature",
      "id": "node/446941382",
      "properties": {
        "@id": "node/446941382",
        "highway": "bus_stop",
        "name": "15th Cross Sampige Road"
      },
      "geometry": {
        "type": "Point",
        "coordinates": [
          77.5712117,
          13.005327
        ]
      }
    },
    {
      "type": "Feature",
      "id": "node/446995784",
      "properties": {
        "@id": "node/446995784",
        "highway": "bus_stop",
        "local_ref": "VYALIKAVAL",
        "name": "Vyalikaval Police Station"
      },
      "geometry": {
        "type": "Point",
        "coordinates": [
          77.5784674,
          13.0016888
        ]
      }
    },
    {
      "type": "Feature",
      "id": "node/446995789",
      "properties": {
        "@id": "node/446995789",
        "highway": "bus_stop",
        "name": "Guttahalli Bus Stop"
      },
      "geometry": {
        "type": "Point",
        "coordinates": [
          77.5842104,
          12.9998182
        ]
      }
    },
    {
      "type": "Feature",
      "id": "node/446995791",
      "properties": {
        "@id": "node/446995791",
        "highway": "bus_stop",
        "name": "Pipe Line"
      },
      "geometry": {
        "type": "Point",
        "coordinates": [
          77.5810572,
          12.9955422
        ]
      }
    },
    {
      "type": "Feature",
      "id": "node/446995793",
      "properties": {
        "@id": "node/446995793",
        "highway": "bus_stop",
        "name": "RMS"
      },
      "geometry": {
        "type": "Point",
        "coordinates": [
          77.5774551,
          12.9940185
        ]
      }
    },
    {
      "type": "Feature",
      "id": "node/446995794",
      "properties": {
        "@id": "node/446995794",
        "highway": "bus_stop",
        "name": "Dattatreya Temple"
      },
      "geometry": {
        "type": "Point",
        "coordinates": [
          77.5746946,
          12.9989551
        ]
      }
    },
    {
      "type": "Feature",
      "id": "node/446995796",
      "properties": {
        "@id": "node/446995796",
        "highway": "bus_stop",
        "name": "11th Cross"
      },
      "geometry": {
        "type": "Point",
        "coordinates": [
          77.5711826,
          13.0015549
        ]
      }
    },
    {
      "type": "Feature",
      "id": "node/446995800",
      "properties": {
        "@id": "node/446995800",
        "highway": "bus_stop",
        "local_ref": "MALLESHWARAM",
        "name": "8th Cross 8th Main"
      },
      "geometry": {
        "type": "Point",
        "coordinates": [
          77.5653797,
          13.0003503
        ]
      }
    },
    {
      "type": "Feature",
      "id": "node/446995802",
      "properties": {
        "@id": "node/446995802",
        "highway": "bus_stop",
        "name": "Devaiah Park"
      },
      "geometry": {
        "type": "Point",
        "coordinates": [
          77.5630592,
          12.9965369
        ]
      }
    },
    {
      "type": "Feature",
      "id": "node/446995807",
      "properties": {
        "@id": "node/446995807",
        "highway": "bus_stop",
        "name": "Mariyappana Palya"
      },
      "geometry": {
        "type": "Point",
        "coordinates": [
          77.556332,
          12.9986486
        ]
      }
    },
    {
      "type": "Feature",
      "id": "node/446995809",
      "properties": {
        "@id": "node/446995809",
        "highway": "bus_stop",
        "local_ref": "RAJAJINAGARA",
        "name": "Basaveshwara College"
      },
      "geometry": {
        "type": "Point",
        "coordinates": [
          77.5527336,
          12.9948974
        ]
      }
    },
    {
      "type": "Feature",
      "id": "node/446995812",
      "properties": {
        "@id": "node/446995812",
        "highway": "bus_stop",
        "local_ref": "RAJAJINAGARA",
        "name": "Rajaji Nagar Old Police station"
      },
      "geometry": {
        "type": "Point",
        "coordinates": [
          77.5543944,
          12.9898933
        ]
      }
    },
    {
      "type": "Feature",
      "id": "node/446995820",
      "properties": {
        "@id": "node/446995820",
        "highway": "bus_stop",
        "local_ref": "BHASHYAM NAGARA",
        "name": "Aruna Talkies, Gandhi school"
      },
      "geometry": {
        "type": "Point",
        "coordinates": [
          77.5665166,
          12.9887274
        ]
      }
    },
    {
      "type": "Feature",
      "id": "node/446995823",
      "properties": {
        "@id": "node/446995823",
        "highway": "bus_stop",
        "name": "Bashyam Nagar"
      },
      "geometry": {
        "type": "Point",
        "coordinates": [
          77.5679782,
          12.9907699
        ]
      }
    },
    {
      "type": "Feature",
      "id": "node/446995825",
      "properties": {
        "@id": "node/446995825",
        "highway": "bus_stop",
        "local_ref": "SHESHADRI PURAM",
        "name": "Central"
      },
      "geometry": {
        "type": "Point",
        "coordinates": [
          77.5719368,
          12.9894421
        ]
      }
    },
    {
      "type": "Feature",
      "id": "node/446995827",
      "properties": {
        "@id": "node/446995827",
        "highway": "bus_stop",
        "name": "Gandhi School"
      },
      "geometry": {
        "type": "Point",
        "coordinates": [
          77.5676274,
          12.9872686
        ]
      }
    },
    {
      "type": "Feature",
      "id": "node/446995828",
      "properties": {
        "@id": "node/446995828",
        "highway": "bus_stop",
        "name": "Ramachandra Pura Market"
      },
      "geometry": {
        "type": "Point",
        "coordinates": [
          77.563,
          12.9856891
        ]
      }
    },
    {
      "type": "Feature",
      "id": "node/446995829",
      "properties": {
        "@id": "node/446995829",
        "highway": "bus_stop",
        "name": "KC General Hospital"
      },
      "geometry": {
        "type": "Point",
        "coordinates": [
          77.5681935,
          12.9968401
        ]
      }
    },
    {
      "type": "Feature",
      "id": "node/446995830",
      "properties": {
        "@id": "node/446995830",
        "highway": "bus_stop",
        "name": "Brand Reddy Circle"
      },
      "geometry": {
        "type": "Point",
        "coordinates": [
          77.5680318,
          12.9933521
        ]
      }
    },
    {
      "type": "Feature",
      "id": "node/446995832",
      "properties": {
        "@id": "node/446995832",
        "highway": "bus_stop",
        "local_ref": "SRIRAMPURA",
        "name": "Chowdeshawari Temple"
      },
      "geometry": {
        "type": "Point",
        "coordinates": [
          77.5662853,
          12.9954763
        ]
      }
    },
    {
      "type": "Feature",
      "id": "node/446995834",
      "properties": {
        "@id": "node/446995834",
        "highway": "bus_stop",
        "name": "Malleshwaram Circle"
      },
      "geometry": {
        "type": "Point",
        "coordinates": [
          77.569389,
          12.9974576
        ]
      }
    },
    {
      "type": "Feature",
      "id": "node/447078372",
      "properties": {
        "@id": "node/447078372",
        "highway": "bus_stop",
        "local_ref": "RAJAJI NAGARA",
        "name": "MEI POLYTECHNIC COLLEGE"
      },
      "geometry": {
        "type": "Point",
        "coordinates": [
          77.5569397,
          12.9847055
        ]
      }
    },
    {
      "type": "Feature",
      "id": "node/448117694",
      "properties": {
        "@id": "node/448117694",
        "highway": "bus_stop",
        "local_ref": "HALEGUDDADAHALLI",
        "name": "Goripalya Cross"
      },
      "geometry": {
        "type": "Point",
        "coordinates": [
          77.5549629,
          12.9601434
        ]
      }
    },
    {
      "type": "Feature",
      "id": "node/448118099",
      "properties": {
        "@id": "node/448118099",
        "highway": "bus_stop",
        "local_ref": "HALEGUDDADAHALLI",
        "name": "Vinayaka Nagara"
      },
      "geometry": {
        "type": "Point",
        "coordinates": [
          77.5504138,
          12.9609381
        ]
      }
    },
    {
      "type": "Feature",
      "id": "node/448132790",
      "properties": {
        "@id": "node/448132790",
        "highway": "bus_stop",
        "name": "Balajinagara"
      },
      "geometry": {
        "type": "Point",
        "coordinates": [
          77.6033468,
          12.9279981
        ]
      }
    },
    {
      "type": "Feature",
      "id": "node/452414811",
      "properties": {
        "@id": "node/452414811",
        "highway": "bus_stop",
        "local_ref": "Kasturba Road",
        "name": "Corporation"
      },
      "geometry": {
        "type": "Point",
        "coordinates": [
          77.5896125,
          12.9683591
        ]
      }
    },
    {
      "type": "Feature",
      "id": "node/454083696",
      "properties": {
        "@id": "node/454083696",
        "highway": "bus_stop",
        "name": "Hennur Depot"
      },
      "geometry": {
        "type": "Point",
        "coordinates": [
          77.6317605,
          13.0258322
        ]
      }
    },
    {
      "type": "Feature",
      "id": "node/460976009",
      "properties": {
        "@id": "node/460976009",
        "highway": "bus_stop",
        "name": "Yeshawanthapura TTMC"
      },
      "geometry": {
        "type": "Point",
        "coordinates": [
          77.5570575,
          13.0179669
        ]
      }
    },
    {
      "type": "Feature",
      "id": "node/461539063",
      "properties": {
        "@id": "node/461539063",
        "highway": "bus_stop",
        "name": "Mekhri Circle"
      },
      "geometry": {
        "type": "Point",
        "coordinates": [
          77.5823369,
          13.0145974
        ]
      }
    },
    {
      "type": "Feature",
      "id": "node/469614003",
      "properties": {
        "@id": "node/469614003",
        "highway": "bus_stop",
        "local_ref": "Forties Hospital",
        "name": "Cunningham Road"
      },
      "geometry": {
        "type": "Point",
        "coordinates": [
          77.5945212,
          12.9875969
        ]
      }
    },
    {
      "type": "Feature",
      "id": "node/492655075",
      "properties": {
        "@id": "node/492655075",
        "highway": "bus_stop",
        "local_ref": "SHAMPURA",
        "name": "Shampura"
      },
      "geometry": {
        "type": "Point",
        "coordinates": [
          77.6148215,
          13.0267836
        ]
      }
    },
    {
      "type": "Feature",
      "id": "node/517325325",
      "properties": {
        "@id": "node/517325325",
        "highway": "bus_stop",
        "local_ref": "INDIRANAGARA",
        "name": "Chinmaya Mission Hospital"
      },
      "geometry": {
        "type": "Point",
        "coordinates": [
          77.646458,
          12.9785368
        ]
      }
    },
    {
      "type": "Feature",
      "id": "node/517874467",
      "properties": {
        "@id": "node/517874467",
        "highway": "bus_stop",
        "name": "Mahila samaja"
      },
      "geometry": {
        "type": "Point",
        "coordinates": [
          77.5737413,
          12.9530434
        ]
      }
    },
    {
      "type": "Feature",
      "id": "node/529804682",
      "properties": {
        "@id": "node/529804682",
        "highway": "bus_stop",
        "name": "JC NAGARA"
      },
      "geometry": {
        "type": "Point",
        "coordinates": [
          77.5927587,
          13.0066753
        ]
      }
    },
    {
      "type": "Feature",
      "id": "node/529804689",
      "properties": {
        "@id": "node/529804689",
        "highway": "bus_stop",
        "name": "Mekhri Circle"
      },
      "geometry": {
        "type": "Point",
        "coordinates": [
          77.5853344,
          13.0145028
        ]
      }
    },
    {
      "type": "Feature",
      "id": "node/568362029",
      "properties": {
        "@id": "node/568362029",
        "highway": "bus_stop",
        "name": "Yeshwantpur Station"
      },
      "geometry": {
        "type": "Point",
        "coordinates": [
          77.553324,
          13.0190108
        ]
      }
    },
    {
      "type": "Feature",
      "id": "node/573433441",
      "properties": {
        "@id": "node/573433441",
        "highway": "bus_stop",
        "name": "CSI Hospital"
      },
      "geometry": {
        "type": "Point",
        "coordinates": [
          77.599405,
          12.9901418
        ]
      }
    },
    {
      "type": "Feature",
      "id": "node/577019587",
      "properties": {
        "@id": "node/577019587",
        "highway": "bus_stop",
        "name": "Rajiv Gandhi Circle"
      },
      "geometry": {
        "type": "Point",
        "coordinates": [
          77.572556,
          12.9897159
        ]
      }
    },
    {
      "type": "Feature",
      "id": "node/577021934",
      "properties": {
        "@id": "node/577021934",
        "highway": "bus_stop",
        "name": "Maleshwaram Circle"
      },
      "geometry": {
        "type": "Point",
        "coordinates": [
          77.571308,
          12.9975205
        ]
      }
    },
    {
      "type": "Feature",
      "id": "node/582576069",
      "properties": {
        "@id": "node/582576069",
        "highway": "bus_stop",
        "name": "LR Bande"
      },
      "geometry": {
        "type": "Point",
        "coordinates": [
          77.6092934,
          13.029541
        ]
      }
    },
    {
      "type": "Feature",
      "id": "node/582589270",
      "properties": {
        "@id": "node/582589270",
        "highway": "bus_stop",
        "local_ref": "RT NAGARA",
        "name": "Thimmayya Garden"
      },
      "geometry": {
        "type": "Point",
        "coordinates": [
          77.5987829,
          13.0185229
        ]
      }
    },
    {
      "type": "Feature",
      "id": "node/597083018",
      "properties": {
        "@id": "node/597083018",
        "highway": "bus_stop",
        "name": "Maharani College"
      },
      "geometry": {
        "type": "Point",
        "coordinates": [
          77.5856844,
          12.9770891
        ]
      }
    },
    {
      "type": "Feature",
      "id": "node/597363270",
      "properties": {
        "@id": "node/597363270",
        "highway": "bus_stop",
        "local_ref": "Pallavi talikes",
        "name": "Hudson Circle"
      },
      "geometry": {
        "type": "Point",
        "coordinates": [
          77.5905268,
          12.9678248
        ]
      }
    },
    {
      "type": "Feature",
      "id": "node/599226618",
      "properties": {
        "@id": "node/599226618",
        "highway": "bus_stop",
        "local_ref": "KALYAN NAGAR",
        "name": "Kalyananagara"
      },
      "geometry": {
        "type": "Point",
        "coordinates": [
          77.6387774,
          13.0263469
        ]
      }
    },
    {
      "type": "Feature",
      "id": "node/599229323",
      "properties": {
        "@id": "node/599229323",
        "highway": "bus_stop",
        "local_ref": "Bellary Road",
        "name": "Veterinary College"
      },
      "geometry": {
        "type": "Point",
        "coordinates": [
          77.5869751,
          13.0307459
        ]
      }
    },
    {
      "type": "Feature",
      "id": "node/661987319",
      "properties": {
        "@id": "node/661987319",
        "highway": "bus_stop",
        "local_ref": "JC NAGARA, RT NAGARA",
        "name": "CIL"
      },
      "geometry": {
        "type": "Point",
        "coordinates": [
          77.5929752,
          13.0116354
        ]
      }
    },
    {
      "type": "Feature",
      "id": "node/663317710",
      "properties": {
        "@id": "node/663317710",
        "highway": "bus_stop",
        "name": "St Marthas Hospital"
      },
      "geometry": {
        "type": "Point",
        "coordinates": [
          77.5870551,
          12.9700387
        ]
      }
    },
    {
      "type": "Feature",
      "id": "node/663551440",
      "properties": {
        "@id": "node/663551440",
        "highway": "bus_stop",
        "name": "Vidhana Soudha"
      },
      "geometry": {
        "type": "Point",
        "coordinates": [
          77.5913936,
          12.9790219
        ]
      }
    },
    {
      "type": "Feature",
      "id": "node/663551443",
      "properties": {
        "@id": "node/663551443",
        "highway": "bus_stop",
        "name": "Vidhana Soudha"
      },
      "geometry": {
        "type": "Point",
        "coordinates": [
          77.5923904,
          12.9788951
        ]
      }
    },
    {
      "type": "Feature",
      "id": "node/663573130",
      "properties": {
        "@id": "node/663573130",
        "highway": "bus_stop",
        "local_ref": "UB TOWER",
        "name": "Kasturba Road"
      },
      "geometry": {
        "type": "Point",
        "coordinates": [
          77.5955156,
          12.9739135
        ]
      }
    },
    {
      "type": "Feature",
      "id": "node/663573137",
      "properties": {
        "@id": "node/663573137",
        "highway": "bus_stop",
        "local_ref": "UB TOWER",
        "name": "Kasturba Road"
      },
      "geometry": {
        "type": "Point",
        "coordinates": [
          77.5954575,
          12.973729
        ]
      }
    },
    {
      "type": "Feature",
      "id": "node/663592961",
      "properties": {
        "@id": "node/663592961",
        "highway": "bus_stop",
        "local_ref": "Mahathma Gandhi Statue",
        "name": "Chinnaswamy Stadium"
      },
      "geometry": {
        "type": "Point",
        "coordinates": [
          77.5987972,
          12.9775394
        ]
      }
    },
    {
      "type": "Feature",
      "id": "node/665811373",
      "properties": {
        "@id": "node/665811373",
        "highway": "bus_stop"
      },
      "geometry": {
        "type": "Point",
        "coordinates": [
          77.5866288,
          12.97398
        ]
      }
    },
    {
      "type": "Feature",
      "id": "node/665871300",
      "properties": {
        "@id": "node/665871300",
        "highway": "bus_stop",
        "name": "Jayamahal Bus Stop"
      },
      "geometry": {
        "type": "Point",
        "coordinates": [
          77.5947933,
          13.0004469
        ]
      }
    },
    {
      "type": "Feature",
      "id": "node/677286829",
      "properties": {
        "@id": "node/677286829",
        "highway": "bus_stop"
      },
      "geometry": {
        "type": "Point",
        "coordinates": [
          77.5791192,
          12.9855479
        ]
      }
    },
    {
      "type": "Feature",
      "id": "node/683352655",
      "properties": {
        "@id": "node/683352655",
        "highway": "bus_stop"
      },
      "geometry": {
        "type": "Point",
        "coordinates": [
          77.5800227,
          12.9482035
        ]
      }
    },
    {
      "type": "Feature",
      "id": "node/683352664",
      "properties": {
        "@id": "node/683352664",
        "highway": "bus_stop"
      },
      "geometry": {
        "type": "Point",
        "coordinates": [
          77.58358,
          12.9530829
        ]
      }
    },
    {
      "type": "Feature",
      "id": "node/687434497",
      "properties": {
        "@id": "node/687434497",
        "highway": "bus_stop",
        "name": "MDBlock"
      },
      "geometry": {
        "type": "Point",
        "coordinates": [
          77.5693699,
          12.9939951
        ]
      }
    },
    {
      "type": "Feature",
      "id": "node/729896966",
      "properties": {
        "@id": "node/729896966",
        "highway": "bus_stop",
        "name": "Double Road, KH Road"
      },
      "geometry": {
        "type": "Point",
        "coordinates": [
          77.5931142,
          12.9583268
        ]
      }
    },
    {
      "type": "Feature",
      "id": "node/844462413",
      "properties": {
        "@id": "node/844462413",
        "highway": "bus_stop",
        "name": "Binnamangala"
      },
      "geometry": {
        "type": "Point",
        "coordinates": [
          77.6376049,
          12.9831494
        ]
      }
    },
    {
      "type": "Feature",
      "id": "node/850751679",
      "properties": {
        "@id": "node/850751679",
        "highway": "bus_stop",
        "local_ref": "RT NAGARA",
        "name": "Ganga Nagar"
      },
      "geometry": {
        "type": "Point",
        "coordinates": [
          77.591726,
          13.0249732
        ]
      }
    },
    {
      "type": "Feature",
      "id": "node/860057141",
      "properties": {
        "@id": "node/860057141",
        "highway": "bus_stop"
      },
      "geometry": {
        "type": "Point",
        "coordinates": [
          77.6215147,
          13.0030781
        ]
      }
    },
    {
      "type": "Feature",
      "id": "node/953638201",
      "properties": {
        "@id": "node/953638201",
        "highway": "bus_stop",
        "name": "Muneshwara Block"
      },
      "geometry": {
        "type": "Point",
        "coordinates": [
          77.5485363,
          12.9423028
        ]
      }
    },
    {
      "type": "Feature",
      "id": "node/953688689",
      "properties": {
        "@id": "node/953688689",
        "highway": "bus_stop",
        "name": "SBM Colony",
        "shelter": "yes"
      },
      "geometry": {
        "type": "Point",
        "coordinates": [
          77.5535885,
          12.9386882
        ]
      }
    },
    {
      "type": "Feature",
      "id": "node/954610757",
      "properties": {
        "@id": "node/954610757",
        "highway": "bus_stop",
        "name": "Apex Bank,BANASHANKARI 1ST STAGE HANUMANTHA NAGARA"
      },
      "geometry": {
        "type": "Point",
        "coordinates": [
          77.5558391,
          12.9417809
        ]
      }
    },
    {
      "type": "Feature",
      "id": "node/954619918",
      "properties": {
        "@id": "node/954619918",
        "highway": "bus_stop",
        "name": "Maruthi Circle,HANUMANTHA NAGARA"
      },
      "geometry": {
        "type": "Point",
        "coordinates": [
          77.5584125,
          12.943459
        ]
      }
    },
    {
      "type": "Feature",
      "id": "node/954620241",
      "properties": {
        "@id": "node/954620241",
        "highway": "bus_stop",
        "name": "Sri Krishna Traders"
      },
      "geometry": {
        "type": "Point",
        "coordinates": [
          77.5619719,
          12.943493
        ]
      }
    },
    {
      "type": "Feature",
      "id": "node/954621288",
      "properties": {
        "@id": "node/954621288",
        "highway": "bus_stop",
        "local_ref": "Hanumantha Nagara",
        "name": "Ganesh Bhavan"
      },
      "geometry": {
        "type": "Point",
        "coordinates": [
          77.5642608,
          12.944069
        ]
      }
    },
    {
      "type": "Feature",
      "id": "node/954627990",
      "properties": {
        "@id": "node/954627990",
        "highway": "bus_stop",
        "name": "Nagendra Block,BANASHANKARI 3RD STAGE "
      },
      "geometry": {
        "type": "Point",
        "coordinates": [
          77.5519546,
          12.9420067
        ]
      }
    },
    {
      "type": "Feature",
      "id": "node/956000803",
      "properties": {
        "@id": "node/956000803",
        "highway": "bus_stop",
        "local_ref": "KORAMANGALA",
        "name": "Karnataka Housing Complex"
      },
      "geometry": {
        "type": "Point",
        "coordinates": [
          77.6228775,
          12.9453295
        ]
      }
    },
    {
      "type": "Feature",
      "id": "node/956271888",
      "properties": {
        "@id": "node/956271888",
        "highway": "bus_stop",
        "local_ref": "Ejipura",
        "name": "22nd Cross "
      },
      "geometry": {
        "type": "Point",
        "coordinates": [
          77.6307419,
          12.9428015
        ]
      }
    },
    {
      "type": "Feature",
      "id": "node/1067189842",
      "properties": {
        "@id": "node/1067189842",
        "addr:housenumber": "109",
        "highway": "bus_stop",
        "name": "Chinnappa Garden"
      },
      "geometry": {
        "type": "Point",
        "coordinates": [
          77.6034764,
          13.0030425
        ]
      }
    },
    {
      "type": "Feature",
      "id": "node/1067190323",
      "properties": {
        "@id": "node/1067190323",
        "addr:housenumber": "109",
        "highway": "bus_stop",
        "name": "Marappa Garden "
      },
      "geometry": {
        "type": "Point",
        "coordinates": [
          77.5998679,
          13.0044663
        ]
      }
    },
    {
      "type": "Feature",
      "id": "node/1070361680",
      "properties": {
        "@id": "node/1070361680",
        "highway": "bus_stop",
        "local_ref": "Sarjapur Road",
        "name": "StJohns Hospital"
      },
      "geometry": {
        "type": "Point",
        "coordinates": [
          77.6160091,
          12.9293425
        ]
      }
    },
    {
      "type": "Feature",
      "id": "node/1070361737",
      "properties": {
        "@id": "node/1070361737",
        "highway": "bus_stop",
        "local_ref": "KORAMANGALA RING ROAD",
        "name": "Koramangala Water Tank"
      },
      "geometry": {
        "type": "Point",
        "coordinates": [
          77.6210445,
          12.9278893
        ]
      }
    },
    {
      "type": "Feature",
      "id": "node/1080728417",
      "properties": {
        "@id": "node/1080728417",
        "highway": "bus_stop",
        "name": "N.R.Colony Bus Stop"
      },
      "geometry": {
        "type": "Point",
        "coordinates": [
          77.569009,
          12.9378636
        ]
      }
    },
    {
      "type": "Feature",
      "id": "node/1085530276",
      "properties": {
        "@id": "node/1085530276",
        "highway": "bus_stop",
        "local_ref": "Binni Pete",
        "name": "HOPCOMS MARKET"
      },
      "geometry": {
        "type": "Point",
        "coordinates": [
          77.5616492,
          12.9645208
        ]
      }
    },
    {
      "type": "Feature",
      "id": "node/1096956274",
      "properties": {
        "@id": "node/1096956274",
        "highway": "bus_stop",
        "name": "Government Soap Factory"
      },
      "geometry": {
        "type": "Point",
        "coordinates": [
          77.5543874,
          13.0129039
        ]
      }
    },
    {
      "type": "Feature",
      "id": "node/1097028780",
      "properties": {
        "@id": "node/1097028780",
        "highway": "bus_stop",
        "name": "Yeshwantpur Railway Station Bus Stop"
      },
      "geometry": {
        "type": "Point",
        "coordinates": [
          77.5530305,
          13.0220486
        ]
      }
    },
    {
      "type": "Feature",
      "id": "node/1111557414",
      "properties": {
        "@id": "node/1111557414",
        "highway": "bus_stop",
        "local_ref": "RAJAJI NAGARA",
        "name": "MEI POLYTECHNIC COLLEGE"
      },
      "geometry": {
        "type": "Point",
        "coordinates": [
          77.556856,
          12.9846192
        ]
      }
    },
    {
      "type": "Feature",
      "id": "node/1176722296",
      "properties": {
        "@id": "node/1176722296",
        "highway": "bus_stop",
        "name": "8th Cross Margosa Road"
      },
      "geometry": {
        "type": "Point",
        "coordinates": [
          77.569337,
          12.9999049
        ]
      }
    },
    {
      "type": "Feature",
      "id": "node/1185757004",
      "properties": {
        "@id": "node/1185757004",
        "highway": "bus_stop",
        "name": "Indiranagar 6th main",
        "name:kn": "ಇಂದಿರಾನಗರ ೬ನೇ ಮುಖ್ಯ ರಸ್ತೆ"
      },
      "geometry": {
        "type": "Point",
        "coordinates": [
          77.6411086,
          12.9740564
        ]
      }
    },
    {
      "type": "Feature",
      "id": "node/1232740597",
      "properties": {
        "@id": "node/1232740597",
        "highway": "bus_stop",
        "name": "Indiranagar 6th main",
        "name:kn": "ಇಂದಿರಾನಗರ ೬ನೇ ಮುಖ್ಯ ರಸ್ತೆ"
      },
      "geometry": {
        "type": "Point",
        "coordinates": [
          77.6410225,
          12.9736235
        ]
      }
    },
    {
      "type": "Feature",
      "id": "node/1232953293",
      "properties": {
        "@id": "node/1232953293",
        "highway": "bus_stop",
        "name": "Mayohall"
      },
      "geometry": {
        "type": "Point",
        "coordinates": [
          77.6102933,
          12.9735532
        ]
      }
    },
    {
      "type": "Feature",
      "id": "node/1282881207",
      "properties": {
        "@id": "node/1282881207",
        "highway": "bus_stop"
      },
      "geometry": {
        "type": "Point",
        "coordinates": [
          77.6413436,
          12.9583778
        ]
      }
    },
    {
      "type": "Feature",
      "id": "node/1290058665",
      "properties": {
        "@id": "node/1290058665",
        "highway": "bus_stop",
        "name": "Hockey Ground"
      },
      "geometry": {
        "type": "Point",
        "coordinates": [
          77.616079,
          12.9893965
        ]
      }
    },
    {
      "type": "Feature",
      "id": "node/1307680256",
      "properties": {
        "@id": "node/1307680256",
        "highway": "bus_stop",
        "local_ref": "43A bus stop"
      },
      "geometry": {
        "type": "Point",
        "coordinates": [
          77.5533292,
          12.9303421
        ]
      }
    },
    {
      "type": "Feature",
      "id": "node/1323690429",
      "properties": {
        "@id": "node/1323690429",
        "highway": "bus_stop",
        "name": "Makkalakoota"
      },
      "geometry": {
        "type": "Point",
        "coordinates": [
          77.5737014,
          12.9575898
        ]
      }
    },
    {
      "type": "Feature",
      "id": "node/1333606520",
      "properties": {
        "@id": "node/1333606520",
        "highway": "bus_stop",
        "local_ref": "MALLESHWARAM",
        "name": "15th Cross 8th Main"
      },
      "geometry": {
        "type": "Point",
        "coordinates": [
          77.564669,
          13.0064763
        ]
      }
    },
    {
      "type": "Feature",
      "id": "node/1363295016",
      "properties": {
        "@id": "node/1363295016",
        "highway": "bus_stop",
        "local_ref": "VASANTHA NAGARA",
        "name": "High Ground Police Station"
      },
      "geometry": {
        "type": "Point",
        "coordinates": [
          77.5886955,
          12.986146
        ]
      }
    },
    {
      "type": "Feature",
      "id": "node/1363295062",
      "properties": {
        "@id": "node/1363295062",
        "highway": "bus_stop",
        "local_ref": "VASANTHA NAGARA",
        "name": "Avinasha Petrol Bunk"
      },
      "geometry": {
        "type": "Point",
        "coordinates": [
          77.5889095,
          12.9903574
        ]
      }
    },
    {
      "type": "Feature",
      "id": "node/1383996009",
      "properties": {
        "@id": "node/1383996009",
        "highway": "bus_stop",
        "name": "StJosephs College"
      },
      "geometry": {
        "type": "Point",
        "coordinates": [
          77.6036283,
          12.9703035
        ]
      }
    },
    {
      "type": "Feature",
      "id": "node/1420059004",
      "properties": {
        "@id": "node/1420059004",
        "highway": "bus_stop"
      },
      "geometry": {
        "type": "Point",
        "coordinates": [
          77.6355315,
          12.9655653
        ]
      }
    },
    {
      "type": "Feature",
      "id": "node/1420066707",
      "properties": {
        "@id": "node/1420066707",
        "highway": "bus_stop"
      },
      "geometry": {
        "type": "Point",
        "coordinates": [
          77.6355315,
          12.9655653
        ]
      }
    },
    {
      "type": "Feature",
      "id": "node/1420113193",
      "properties": {
        "@id": "node/1420113193",
        "highway": "bus_stop",
        "name": "HAL 2nd Stage",
        "name:kn": "ದೋಪ್ಪನ ಹಳ್ಳಿ"
      },
      "geometry": {
        "type": "Point",
        "coordinates": [
          77.6415116,
          12.9636723
        ]
      }
    },
    {
      "type": "Feature",
      "id": "node/1422403248",
      "properties": {
        "@id": "node/1422403248",
        "highway": "bus_stop",
        "local_ref": "Pushpanjali Talkies RT Nagar",
        "name": "Sulthanplaya "
      },
      "geometry": {
        "type": "Point",
        "coordinates": [
          77.6022073,
          13.0222289
        ]
      }
    },
    {
      "type": "Feature",
      "id": "node/1426776304",
      "properties": {
        "@id": "node/1426776304",
        "highway": "bus_stop",
        "local_ref": "Murgeshpallya"
      },
      "geometry": {
        "type": "Point",
        "coordinates": [
          77.656116,
          12.9592633
        ]
      }
    },
    {
      "type": "Feature",
      "id": "node/1436191050",
      "properties": {
        "@id": "node/1436191050",
        "highway": "bus_stop",
        "name": "SadanandaNagar Bus Stop"
      },
      "geometry": {
        "type": "Point",
        "coordinates": [
          77.6571776,
          12.9962665
        ]
      }
    },
    {
      "type": "Feature",
      "id": "node/1442068021",
      "properties": {
        "@id": "node/1442068021",
        "highway": "bus_stop",
        "name": "Lalbagh Siddapura (Lalbagh East Gate)"
      },
      "geometry": {
        "type": "Point",
        "coordinates": [
          77.5881572,
          12.9462066
        ]
      }
    },
    {
      "type": "Feature",
      "id": "node/1442068023",
      "properties": {
        "@id": "node/1442068023",
        "highway": "bus_stop",
        "name": "Wilson Garden 12th Cross",
        "name:kn": "೧೨ನೇ ಅಡ್ಡ ರಸ್ತೆ"
      },
      "geometry": {
        "type": "Point",
        "coordinates": [
          77.5969852,
          12.9459031
        ]
      }
    },
    {
      "type": "Feature",
      "id": "node/1442068029",
      "properties": {
        "@id": "node/1442068029",
        "highway": "bus_stop",
        "name": "Madavan Park,JAYANAGARA 3RD BLOCK"
      },
      "geometry": {
        "type": "Point",
        "coordinates": [
          77.5838216,
          12.9366272
        ]
      }
    },
    {
      "type": "Feature",
      "id": "node/1442068030",
      "properties": {
        "@id": "node/1442068030",
        "highway": "bus_stop",
        "name": "Wilson Garden 10th Cross",
        "name:kn": "೧೦ನೇ ಅಡ್ಡ ರಸ್ತೆ"
      },
      "geometry": {
        "type": "Point",
        "coordinates": [
          77.5959665,
          12.9465404
        ]
      }
    },
    {
      "type": "Feature",
      "id": "node/1442068035",
      "properties": {
        "@id": "node/1442068035",
        "highway": "bus_stop",
        "local_ref": "JAYANAGARA 1ST BLOCK",
        "name": "Rani Saraladevi School"
      },
      "geometry": {
        "type": "Point",
        "coordinates": [
          77.5850532,
          12.9380441
        ]
      }
    },
    {
      "type": "Feature",
      "id": "node/1442068036",
      "properties": {
        "@id": "node/1442068036",
        "highway": "bus_stop",
        "local_ref": "JAYANAGARA 1ST BLOCK",
        "name": "Ashoka Pillar"
      },
      "geometry": {
        "type": "Point",
        "coordinates": [
          77.5851688,
          12.9428948
        ]
      }
    },
    {
      "type": "Feature",
      "id": "node/1442068037",
      "properties": {
        "@id": "node/1442068037",
        "highway": "bus_stop",
        "name": "Ashoka Pillar"
      },
      "geometry": {
        "type": "Point",
        "coordinates": [
          77.5846389,
          12.9437023
        ]
      }
    },
    {
      "type": "Feature",
      "id": "node/1448262215",
      "properties": {
        "@id": "node/1448262215",
        "highway": "bus_stop",
        "name": "Kidwai (NIMHANS)"
      },
      "geometry": {
        "type": "Point",
        "coordinates": [
          77.5985063,
          12.9384039
        ]
      }
    },
    {
      "type": "Feature",
      "id": "node/1448634282",
      "properties": {
        "@id": "node/1448634282",
        "highway": "bus_stop",
        "local_ref": "JAYANAGARA 1ST BLOCK",
        "name": "Byrasandra"
      },
      "geometry": {
        "type": "Point",
        "coordinates": [
          77.5896014,
          12.9329917
        ]
      }
    },
    {
      "type": "Feature",
      "id": "node/1448635322",
      "properties": {
        "@id": "node/1448635322",
        "highway": "bus_stop",
        "name": "Lakkasandra"
      },
      "geometry": {
        "type": "Point",
        "coordinates": [
          77.5970849,
          12.9440444
        ]
      }
    },
    {
      "type": "Feature",
      "id": "node/1448635327",
      "properties": {
        "@id": "node/1448635327",
        "highway": "bus_stop",
        "name": "Lakksandra"
      },
      "geometry": {
        "type": "Point",
        "coordinates": [
          77.5972694,
          12.9431297
        ]
      }
    },
    {
      "type": "Feature",
      "id": "node/1454651907",
      "properties": {
        "@id": "node/1454651907",
        "highway": "bus_stop",
        "name": "HAL Main Gate"
      },
      "geometry": {
        "type": "Point",
        "coordinates": [
          77.6658339,
          12.9583785
        ]
      }
    },
    {
      "type": "Feature",
      "id": "node/1454651909",
      "properties": {
        "@id": "node/1454651909",
        "highway": "bus_stop",
        "name": "Command Hospital"
      },
      "geometry": {
        "type": "Point",
        "coordinates": [
          77.6258,
          12.9645072
        ]
      }
    },
    {
      "type": "Feature",
      "id": "node/1464908663",
      "properties": {
        "@id": "node/1464908663",
        "highway": "bus_stop",
        "name": "Tata Silk Farm, K R road( towards Banashankari)"
      },
      "geometry": {
        "type": "Point",
        "coordinates": [
          77.573834,
          12.9360147
        ]
      }
    },
    {
      "type": "Feature",
      "id": "node/1464922039",
      "properties": {
        "@id": "node/1464922039",
        "highway": "bus_stop",
        "local_ref": "BANASHANKARI 2ND STAGE",
        "name": "MM industries"
      },
      "geometry": {
        "type": "Point",
        "coordinates": [
          77.5736738,
          12.9292047
        ]
      }
    },
    {
      "type": "Feature",
      "id": "node/1464962566",
      "properties": {
        "@id": "node/1464962566",
        "highway": "bus_stop",
        "local_ref": "KORAMANGALA",
        "name": "Koramangala Police Station"
      },
      "geometry": {
        "type": "Point",
        "coordinates": [
          77.6207315,
          12.9410045
        ]
      }
    },
    {
      "type": "Feature",
      "id": "node/1465059596",
      "properties": {
        "@id": "node/1465059596",
        "highway": "bus_stop",
        "local_ref": "RAJAJINAGARA 1ST BLOCK",
        "name": "GKW"
      },
      "geometry": {
        "type": "Point",
        "coordinates": [
          77.5544239,
          13.0079717
        ]
      }
    },
    {
      "type": "Feature",
      "id": "node/1466547205",
      "properties": {
        "@id": "node/1466547205",
        "highway": "bus_stop",
        "name": "BMTC BUS STOP"
      },
      "geometry": {
        "type": "Point",
        "coordinates": [
          77.5612349,
          13.0043507
        ]
      }
    },
    {
      "type": "Feature",
      "id": "node/1466724591",
      "properties": {
        "@id": "node/1466724591",
        "highway": "bus_stop",
        "name": "Nirmala Stores,HANUMANTHA NAGARA"
      },
      "geometry": {
        "type": "Point",
        "coordinates": [
          77.5593471,
          12.9416214
        ]
      }
    },
    {
      "type": "Feature",
      "id": "node/1467246058",
      "properties": {
        "@id": "node/1467246058",
        "highway": "bus_stop",
        "name": "HAL Main Gate"
      },
      "geometry": {
        "type": "Point",
        "coordinates": [
          77.6658548,
          12.9584916
        ]
      }
    },
    {
      "type": "Feature",
      "id": "node/1468911089",
      "properties": {
        "@id": "node/1468911089",
        "highway": "bus_stop",
        "name": "Dhobi Ghat"
      },
      "geometry": {
        "type": "Point",
        "coordinates": [
          77.5498509,
          12.9875211
        ]
      }
    },
    {
      "type": "Feature",
      "id": "node/1468911092",
      "properties": {
        "@id": "node/1468911092",
        "highway": "bus_stop",
        "name": "Dhobi Ghat"
      },
      "geometry": {
        "type": "Point",
        "coordinates": [
          77.5506254,
          12.9873063
        ]
      }
    },
    {
      "type": "Feature",
      "id": "node/1469196565",
      "properties": {
        "@id": "node/1469196565",
        "designation": "towards Sevanagar",
        "highway": "bus_stop",
        "local_ref": "FRAZER TOWN",
        "name": "Coles Park "
      },
      "geometry": {
        "type": "Point",
        "coordinates": [
          77.6097755,
          12.9929481
        ]
      }
    },
    {
      "type": "Feature",
      "id": "node/1469215488",
      "properties": {
        "@id": "node/1469215488",
        "highway": "bus_stop",
        "local_ref": "CBI Road Bus Stop"
      },
      "geometry": {
        "type": "Point",
        "coordinates": [
          77.5850395,
          13.0256239
        ]
      }
    },
    {
      "type": "Feature",
      "id": "node/1470544932",
      "properties": {
        "@id": "node/1470544932",
        "highway": "bus_stop",
        "local_ref": "MAHALAKSHMI LAYOUT",
        "name": "Mahalakshmi Layout Entrance Busstop"
      },
      "geometry": {
        "type": "Point",
        "coordinates": [
          77.5479492,
          13.007835
        ]
      }
    },
    {
      "type": "Feature",
      "id": "node/1470547252",
      "properties": {
        "@id": "node/1470547252",
        "highway": "bus_stop",
        "name": "VRL bus stop"
      },
      "geometry": {
        "type": "Point",
        "coordinates": [
          77.5537732,
          13.0052041
        ]
      }
    },
    {
      "type": "Feature",
      "id": "node/1470547294",
      "properties": {
        "@id": "node/1470547294",
        "highway": "bus_stop",
        "name": "Harishandra Ghat Bus stop"
      },
      "geometry": {
        "type": "Point",
        "coordinates": [
          77.5601163,
          12.9973787
        ]
      }
    },
    {
      "type": "Feature",
      "id": "node/1471128637",
      "properties": {
        "@id": "node/1471128637",
        "highway": "bus_stop",
        "local_ref": "KORAMANGALA",
        "name": "Koramangala Kalyana Mantapa"
      },
      "geometry": {
        "type": "Point",
        "coordinates": [
          77.618243,
          12.9369968
        ]
      }
    },
    {
      "type": "Feature",
      "id": "node/1471781029",
      "properties": {
        "@id": "node/1471781029",
        "highway": "bus_stop",
        "local_ref": "RAJAJINAGARA",
        "name": "Rajaji Nagar 1st Block"
      },
      "geometry": {
        "type": "Point",
        "coordinates": [
          77.5499677,
          13.0037787
        ]
      }
    },
    {
      "type": "Feature",
      "id": "node/1471781253",
      "properties": {
        "@id": "node/1471781253",
        "highway": "bus_stop"
      },
      "geometry": {
        "type": "Point",
        "coordinates": [
          77.6414375,
          12.9545191
        ]
      }
    },
    {
      "type": "Feature",
      "id": "node/1472871827",
      "properties": {
        "@id": "node/1472871827",
        "highway": "bus_stop",
        "name": "Kormangala 1st Block"
      },
      "geometry": {
        "type": "Point",
        "coordinates": [
          77.6332585,
          12.9302645
        ]
      }
    },
    {
      "type": "Feature",
      "id": "node/1472871982",
      "properties": {
        "@id": "node/1472871982",
        "highway": "bus_stop",
        "local_ref": "Kormangala",
        "name": "Wipro Park"
      },
      "geometry": {
        "type": "Point",
        "coordinates": [
          77.6332567,
          12.928801
        ]
      }
    },
    {
      "type": "Feature",
      "id": "node/1473255017",
      "properties": {
        "@id": "node/1473255017",
        "highway": "bus_stop",
        "name": "Srinagara"
      },
      "geometry": {
        "type": "Point",
        "coordinates": [
          77.5546312,
          12.9446841
        ]
      }
    },
    {
      "type": "Feature",
      "id": "node/1474220561",
      "properties": {
        "@id": "node/1474220561",
        "highway": "bus_stop",
        "name": "HAL 12th Main,INDIRA NAGARA",
        "name:kn": "ಇಂದಿರಾನಗರ ೧೨ನೇ ಮುಖ್ಯ ರಸ್ತೆ"
      },
      "geometry": {
        "type": "Point",
        "coordinates": [
          77.6412098,
          12.9698448
        ]
      }
    },
    {
      "type": "Feature",
      "id": "node/1474258848",
      "properties": {
        "@id": "node/1474258848",
        "highway": "bus_stop",
        "name": "Indira nagar Defence colony"
      },
      "geometry": {
        "type": "Point",
        "coordinates": [
          77.6411158,
          12.9767808
        ]
      }
    },
    {
      "type": "Feature",
      "id": "node/1474432219",
      "properties": {
        "@id": "node/1474432219",
        "highway": "bus_stop",
        "local_ref": "KORAMANGALA",
        "name": "Jyothi nivas College"
      },
      "geometry": {
        "type": "Point",
        "coordinates": [
          77.6146238,
          12.9355391
        ]
      }
    },
    {
      "type": "Feature",
      "id": "node/1474819890",
      "properties": {
        "@id": "node/1474819890",
        "highway": "bus_stop",
        "name": "Chord Road Stop (Navrang)"
      },
      "geometry": {
        "type": "Point",
        "coordinates": [
          77.550729,
          12.9958427
        ]
      }
    },
    {
      "type": "Feature",
      "id": "node/1474821314",
      "properties": {
        "@id": "node/1474821314",
        "highway": "bus_stop",
        "name": "Aralimara"
      },
      "geometry": {
        "type": "Point",
        "coordinates": [
          77.5490832,
          12.9825714
        ]
      }
    },
    {
      "type": "Feature",
      "id": "node/1474827877",
      "properties": {
        "@id": "node/1474827877",
        "highway": "bus_stop",
        "local_ref": "Magadi Road",
        "name": "Prasanna Talkies"
      },
      "geometry": {
        "type": "Point",
        "coordinates": [
          77.5510534,
          12.9739244
        ]
      }
    },
    {
      "type": "Feature",
      "id": "node/1474863985",
      "properties": {
        "@id": "node/1474863985",
        "designation": "Towards Basaswadi",
        "highway": "bus_stop",
        "local_ref": "MARUTHI SEVA NAGARA",
        "name": "Jai Bharath Nagar"
      },
      "geometry": {
        "type": "Point",
        "coordinates": [
          77.6300002,
          13.0014103
        ]
      }
    },
    {
      "type": "Feature",
      "id": "node/1474864004",
      "properties": {
        "@id": "node/1474864004",
        "highway": "bus_stop",
        "name": "Maruthi Sevanagar "
      },
      "geometry": {
        "type": "Point",
        "coordinates": [
          77.634642,
          13.0026565
        ]
      }
    },
    {
      "type": "Feature",
      "id": "node/1474864012",
      "properties": {
        "@id": "node/1474864012",
        "designation": "towards Coxtown",
        "highway": "bus_stop",
        "name": "Maruthi Sevanagar "
      },
      "geometry": {
        "type": "Point",
        "coordinates": [
          77.6347376,
          13.0026552
        ]
      }
    },
    {
      "type": "Feature",
      "id": "node/1474864013",
      "properties": {
        "@id": "node/1474864013",
        "designation": "Towards Cox Town",
        "highway": "bus_stop",
        "local_ref": "MARUTHI SEVA NAGARA",
        "name": "Jai Bharath Nagar"
      },
      "geometry": {
        "type": "Point",
        "coordinates": [
          77.6302536,
          13.001522
        ]
      }
    },
    {
      "type": "Feature",
      "id": "node/1474877585",
      "properties": {
        "@id": "node/1474877585",
        "highway": "bus_stop",
        "local_ref": "Kacharakanahalli",
        "name": "Kacharakanahalli "
      },
      "geometry": {
        "type": "Point",
        "coordinates": [
          77.6298898,
          13.0209375
        ]
      }
    },
    {
      "type": "Feature",
      "id": "node/1474877609",
      "properties": {
        "@id": "node/1474877609",
        "highway": "bus_stop",
        "local_ref": "Lingarajapura,KACHAKARANAHALLI",
        "name": "Jyothi School "
      },
      "geometry": {
        "type": "Point",
        "coordinates": [
          77.6294852,
          13.016685
        ]
      }
    },
    {
      "type": "Feature",
      "id": "node/1485686875",
      "properties": {
        "@id": "node/1485686875",
        "highway": "bus_stop",
        "name": "Jeevanahalli"
      },
      "geometry": {
        "type": "Point",
        "coordinates": [
          77.6285063,
          12.9949953
        ]
      }
    },
    {
      "type": "Feature",
      "id": "node/1488405361",
      "properties": {
        "@id": "node/1488405361",
        "highway": "bus_stop",
        "name": "Indira Nagar Police Station"
      },
      "geometry": {
        "type": "Point",
        "coordinates": [
          77.6378514,
          12.9829846
        ]
      }
    },
    {
      "type": "Feature",
      "id": "node/1488405362",
      "properties": {
        "@id": "node/1488405362",
        "highway": "bus_stop",
        "name": "Indira Nagar Double Road"
      },
      "geometry": {
        "type": "Point",
        "coordinates": [
          77.6368898,
          12.9781902
        ]
      }
    },
    {
      "type": "Feature",
      "id": "node/1488405363",
      "properties": {
        "@id": "node/1488405363",
        "highway": "bus_stop",
        "name": "Indira Nagar Double Road"
      },
      "geometry": {
        "type": "Point",
        "coordinates": [
          77.6369094,
          12.9782961
        ]
      }
    },
    {
      "type": "Feature",
      "id": "node/1508833352",
      "properties": {
        "@id": "node/1508833352",
        "highway": "bus_stop",
        "name": "Jagadeesha nagar"
      },
      "geometry": {
        "type": "Point",
        "coordinates": [
          77.6656024,
          12.9715941
        ]
      }
    },
    {
      "type": "Feature",
      "id": "node/1520838605",
      "properties": {
        "@id": "node/1520838605",
        "highway": "bus_stop",
        "local_ref": "RAJAJINAGARA INDUSTRIAL TOWN",
        "name": "Dhobi Ghat"
      },
      "geometry": {
        "type": "Point",
        "coordinates": [
          77.5497259,
          12.9875087
        ]
      }
    },
    {
      "type": "Feature",
      "id": "node/1520838870",
      "properties": {
        "@id": "node/1520838870",
        "highway": "bus_stop",
        "local_ref": "RAJAJINAGARA 4TH BLOCK",
        "name": "Ramamandira"
      },
      "geometry": {
        "type": "Point",
        "coordinates": [
          77.556299,
          12.9857427
        ]
      }
    },
    {
      "type": "Feature",
      "id": "node/1521036512",
      "properties": {
        "@id": "node/1521036512",
        "highway": "bus_stop",
        "name": "Magadi Road 5th Cross"
      },
      "geometry": {
        "type": "Point",
        "coordinates": [
          77.5605244,
          12.9757814
        ]
      }
    },
    {
      "type": "Feature",
      "id": "node/1521343675",
      "properties": {
        "@id": "node/1521343675",
        "highway": "bus_stop",
        "name": "Magadi Road 10th Cross"
      },
      "geometry": {
        "type": "Point",
        "coordinates": [
          77.5567775,
          12.9757116
        ]
      }
    },
    {
      "type": "Feature",
      "id": "node/1522519253",
      "properties": {
        "@id": "node/1522519253",
        "highway": "bus_stop",
        "name": "Basavanagudi Police Station"
      },
      "geometry": {
        "type": "Point",
        "coordinates": [
          77.5737748,
          12.9410818
        ]
      }
    },
    {
      "type": "Feature",
      "id": "node/1523537189",
      "properties": {
        "@id": "node/1523537189",
        "highway": "bus_stop",
        "name": "Shivajinagar Bus Station"
      },
      "geometry": {
        "type": "Point",
        "coordinates": [
          77.6034741,
          12.9835306
        ]
      }
    },
    {
      "type": "Feature",
      "id": "node/1523557809",
      "properties": {
        "@id": "node/1523557809",
        "highway": "bus_stop",
        "name": "Military Accounts Office"
      },
      "geometry": {
        "type": "Point",
        "coordinates": [
          77.6173762,
          12.9655949
        ]
      }
    },
    {
      "type": "Feature",
      "id": "node/1526010059",
      "properties": {
        "@id": "node/1526010059",
        "highway": "bus_stop",
        "local_ref": "Kendriya Vidyalaya",
        "name": "CPRI Bus stop"
      },
      "geometry": {
        "type": "Point",
        "coordinates": [
          77.5750665,
          13.0147963
        ]
      }
    },
    {
      "type": "Feature",
      "id": "node/1533823448",
      "properties": {
        "@id": "node/1533823448",
        "highway": "bus_stop",
        "local_ref": "G.M.PALYA",
        "name": "Garkemanthana Palya"
      },
      "geometry": {
        "type": "Point",
        "coordinates": [
          77.6663679,
          12.9753195
        ]
      }
    },
    {
      "type": "Feature",
      "id": "node/1557291133",
      "properties": {
        "@id": "node/1557291133",
        "highway": "bus_stop",
        "name": "Shoolay Circle"
      },
      "geometry": {
        "type": "Point",
        "coordinates": [
          77.6067966,
          12.9658857
        ]
      }
    },
    {
      "type": "Feature",
      "id": "node/1568922532",
      "properties": {
        "@id": "node/1568922532",
        "highway": "bus_stop",
        "name": "Town Hall"
      },
      "geometry": {
        "type": "Point",
        "coordinates": [
          77.5849046,
          12.9636179
        ]
      }
    },
    {
      "type": "Feature",
      "id": "node/1597612576",
      "properties": {
        "@id": "node/1597612576",
        "highway": "bus_stop",
        "name": "Lido"
      },
      "geometry": {
        "type": "Point",
        "coordinates": [
          77.6200456,
          12.9734196
        ]
      }
    },
    {
      "type": "Feature",
      "id": "node/1597612577",
      "properties": {
        "@id": "node/1597612577",
        "highway": "bus_stop"
      },
      "geometry": {
        "type": "Point",
        "coordinates": [
          77.6292364,
          12.9791976
        ]
      }
    },
    {
      "type": "Feature",
      "id": "node/1597612578",
      "properties": {
        "@id": "node/1597612578",
        "highway": "bus_stop",
        "name": "Binnamangala"
      },
      "geometry": {
        "type": "Point",
        "coordinates": [
          77.6392348,
          12.9836449
        ]
      }
    },
    {
      "type": "Feature",
      "id": "node/1597612579",
      "properties": {
        "@id": "node/1597612579",
        "highway": "bus_stop",
        "name": "NGEF"
      },
      "geometry": {
        "type": "Point",
        "coordinates": [
          77.6497579,
          12.9878104
        ]
      }
    },
    {
      "type": "Feature",
      "id": "node/1597612580",
      "properties": {
        "@id": "node/1597612580",
        "highway": "bus_stop",
        "name": "Srinivasapura"
      },
      "geometry": {
        "type": "Point",
        "coordinates": [
          77.6546252,
          12.9900557
        ]
      }
    },
    {
      "type": "Feature",
      "id": "node/1603318756",
      "properties": {
        "@id": "node/1603318756",
        "bench": "yes",
        "highway": "bus_stop",
        "name": "Wilson Garden Police Station",
        "shelter": "yes"
      },
      "geometry": {
        "type": "Point",
        "coordinates": [
          77.595628,
          12.9505849
        ]
      }
    },
    {
      "type": "Feature",
      "id": "node/1617749837",
      "properties": {
        "@id": "node/1617749837",
        "highway": "bus_stop",
        "name": "Johnson Market"
      },
      "geometry": {
        "type": "Point",
        "coordinates": [
          77.6067168,
          12.9635573
        ]
      }
    },
    {
      "type": "Feature",
      "id": "node/1617752128",
      "properties": {
        "@id": "node/1617752128",
        "highway": "bus_stop",
        "local_ref": "SHANTHI NAGARA",
        "name": "Nanjappa Circle"
      },
      "geometry": {
        "type": "Point",
        "coordinates": [
          77.6008743,
          12.9606179
        ]
      }
    },
    {
      "type": "Feature",
      "id": "node/1624006354",
      "properties": {
        "@id": "node/1624006354",
        "highway": "bus_stop",
        "name": "Government Soap Factory"
      },
      "geometry": {
        "type": "Point",
        "coordinates": [
          77.5538074,
          13.0132196
        ]
      }
    },
    {
      "type": "Feature",
      "id": "node/1632815594",
      "properties": {
        "@id": "node/1632815594",
        "highway": "bus_stop",
        "name": "Krishnarajendra Market"
      },
      "geometry": {
        "type": "Point",
        "coordinates": [
          77.5774696,
          12.9637643
        ]
      }
    },
    {
      "type": "Feature",
      "id": "node/1635922811",
      "properties": {
        "@id": "node/1635922811",
        "highway": "bus_stop",
        "local_ref": "HALASURU",
        "name": "Trinity Circle"
      },
      "geometry": {
        "type": "Point",
        "coordinates": [
          77.6205873,
          12.9727351
        ]
      }
    },
    {
      "type": "Feature",
      "id": "node/1635922819",
      "properties": {
        "@id": "node/1635922819",
        "highway": "bus_stop",
        "name": "Trinity Circle"
      },
      "geometry": {
        "type": "Point",
        "coordinates": [
          77.6220531,
          12.9731541
        ]
      }
    },
    {
      "type": "Feature",
      "id": "node/1650296781",
      "properties": {
        "@id": "node/1650296781",
        "highway": "bus_stop",
        "name": "Subbaiah Circle"
      },
      "geometry": {
        "type": "Point",
        "coordinates": [
          77.5900318,
          12.9627815
        ]
      }
    },
    {
      "type": "Feature",
      "id": "node/1675238674",
      "properties": {
        "@id": "node/1675238674",
        "highway": "bus_stop",
        "local_ref": "Rajendranagar",
        "name": "Passport office"
      },
      "geometry": {
        "type": "Point",
        "coordinates": [
          77.6188481,
          12.945676
        ]
      }
    },
    {
      "type": "Feature",
      "id": "node/1681877270",
      "properties": {
        "@id": "node/1681877270",
        "highway": "bus_stop",
        "name": "Benniganahalli"
      },
      "geometry": {
        "type": "Point",
        "coordinates": [
          77.6638851,
          12.9946161
        ]
      }
    },
    {
      "type": "Feature",
      "id": "node/1681877283",
      "properties": {
        "@id": "node/1681877283",
        "highway": "bus_stop",
        "name": "Benniganahalli"
      },
      "geometry": {
        "type": "Point",
        "coordinates": [
          77.6640675,
          12.9943267
        ]
      }
    },
    {
      "type": "Feature",
      "id": "node/1698055294",
      "properties": {
        "@id": "node/1698055294",
        "highway": "bus_stop",
        "name": "Halasuru"
      },
      "geometry": {
        "type": "Point",
        "coordinates": [
          77.6283128,
          12.9781208
        ]
      }
    },
    {
      "type": "Feature",
      "id": "node/1709536511",
      "properties": {
        "@id": "node/1709536511",
        "highway": "bus_stop",
        "name": "Sulthanpalya Bus Station"
      },
      "geometry": {
        "type": "Point",
        "coordinates": [
          77.6040005,
          13.0264968
        ]
      }
    },
    {
      "type": "Feature",
      "id": "node/1739362330",
      "properties": {
        "@id": "node/1739362330",
        "highway": "bus_stop",
        "name": "Town Hall"
      },
      "geometry": {
        "type": "Point",
        "coordinates": [
          77.5842738,
          12.9638535
        ]
      }
    },
    {
      "type": "Feature",
      "id": "node/1741234403",
      "properties": {
        "@id": "node/1741234403",
        "highway": "bus_stop",
        "local_ref": "Tyagarajanagar,BANASHANKARI 2ND STAGE",
        "name": "Indira Nursing Home"
      },
      "geometry": {
        "type": "Point",
        "coordinates": [
          77.5641724,
          12.9292591
        ]
      }
    },
    {
      "type": "Feature",
      "id": "node/1749470458",
      "properties": {
        "@id": "node/1749470458",
        "highway": "bus_stop",
        "local_ref": "BENSON TOWN",
        "name": "Canara Bank"
      },
      "geometry": {
        "type": "Point",
        "coordinates": [
          77.6006167,
          12.9957585
        ]
      }
    },
    {
      "type": "Feature",
      "id": "node/1782180090",
      "properties": {
        "@id": "node/1782180090",
        "designation": "Rama Mandir Chamarajpet",
        "highway": "bus_stop",
        "local_ref": "Rama Mandir Chamarajapete"
      },
      "geometry": {
        "type": "Point",
        "coordinates": [
          77.563187,
          12.9569848
        ]
      }
    },
    {
      "type": "Feature",
      "id": "node/1791639737",
      "properties": {
        "@id": "node/1791639737",
        "highway": "bus_stop",
        "local_ref": "SUBBAIAHAN PALYA",
        "name": "Indian Oil"
      },
      "geometry": {
        "type": "Point",
        "coordinates": [
          77.6384903,
          13.0054504
        ]
      }
    },
    {
      "type": "Feature",
      "id": "node/1806969494",
      "properties": {
        "@id": "node/1806969494",
        "highway": "bus_stop",
        "local_ref": "COTTONPET",
        "name": "Binny Mill"
      },
      "geometry": {
        "type": "Point",
        "coordinates": [
          77.5663375,
          12.9705791
        ]
      }
    },
    {
      "type": "Feature",
      "id": "node/1808894959",
      "properties": {
        "@id": "node/1808894959",
        "highway": "bus_stop",
        "local_ref": "COX TOWN",
        "name": "Coxtown Water Tank"
      },
      "geometry": {
        "type": "Point",
        "coordinates": [
          77.6267497,
          12.9943307
        ]
      }
    },
    {
      "type": "Feature",
      "id": "node/1809760719",
      "properties": {
        "@id": "node/1809760719",
        "highway": "bus_stop",
        "local_ref": "J.J.NAGARA",
        "name": "Jagajeevanram Nagara"
      },
      "geometry": {
        "type": "Point",
        "coordinates": [
          77.5548551,
          12.9645582
        ]
      }
    },
    {
      "type": "Feature",
      "id": "node/1820410900",
      "properties": {
        "@id": "node/1820410900",
        "highway": "bus_stop",
        "name": "Magadi Road 1st Cross"
      },
      "geometry": {
        "type": "Point",
        "coordinates": [
          77.5638734,
          12.9756856
        ]
      }
    },
    {
      "type": "Feature",
      "id": "node/1820411782",
      "properties": {
        "@id": "node/1820411782",
        "highway": "bus_stop",
        "name": "Magadi Road 5th Cross"
      },
      "geometry": {
        "type": "Point",
        "coordinates": [
          77.5604027,
          12.9756621
        ]
      }
    },
    {
      "type": "Feature",
      "id": "node/1820411843",
      "properties": {
        "@id": "node/1820411843",
        "highway": "bus_stop",
        "name": "Magadi Road 10th Cross"
      },
      "geometry": {
        "type": "Point",
        "coordinates": [
          77.5565054,
          12.9755837
        ]
      }
    },
    {
      "type": "Feature",
      "id": "node/1820425367",
      "properties": {
        "@id": "node/1820425367",
        "highway": "bus_stop",
        "local_ref": "Magadi Road",
        "name": "Prasanna Talkies"
      },
      "geometry": {
        "type": "Point",
        "coordinates": [
          77.5509856,
          12.9740311
        ]
      }
    },
    {
      "type": "Feature",
      "id": "node/1820435756",
      "properties": {
        "@id": "node/1820435756",
        "addr:city": "Bangalore",
        "addr:street": "Magadi Road",
        "highway": "bus_stop",
        "local_ref": "VIDYARANYA NAGARA",
        "name": "Toll Gate"
      },
      "geometry": {
        "type": "Point",
        "coordinates": [
          77.5489648,
          12.9745881
        ]
      }
    },
    {
      "type": "Feature",
      "id": "node/1836940132",
      "properties": {
        "@id": "node/1836940132",
        "highway": "bus_stop",
        "name": "Hanumantha Nagara Ward Office"
      },
      "geometry": {
        "type": "Point",
        "coordinates": [
          77.5658489,
          12.9433354
        ]
      }
    },
    {
      "type": "Feature",
      "id": "node/1836940228",
      "properties": {
        "@id": "node/1836940228",
        "highway": "bus_stop",
        "local_ref": "BRINDAVANA NAGARA",
        "name": "Jinke vana"
      },
      "geometry": {
        "type": "Point",
        "coordinates": [
          77.5554901,
          12.9505683
        ]
      }
    },